time,x,y,z,yaw,platform,trajectory,traj_double,traj_short,traj_spin,traj_time,ref_time,comptime,x_ref,y_ref,yaw_ref,z_ref,throttle_input,p_input,q_input,r_input,cbf_term_pitch_cbf,cbf_term_roll_cbf,cbf_term_thrust_cbf,cbf_term_yaw_cbf
10.090626239776611,0.09703045,0.113952495,-2.2285454,0.00407369193693428,SIM,HOVER,DblSpd,Not Short,NoSpin,0.08983373641967773,1.2898337364196777,0.00023698806762695312,1.0,1.0,0.0,-4.0,0.7799551375774808,0.05434772167440802,-0.12647162535645323,0.015612849553464524,3.9875954500616415,-9.041245350628126,-43.19279518968902,0.0
10.19064974784851,0.09671698,0.10661663,-2.2744415,0.0038527102644126373,nan,nan,nan,nan,nan,0.18985915184020996,1.38985915184021,0.0002548694610595703,1.0,1.0,0.0,-4.0,0.7880104767376247,0.1119533162869692,-0.17850526575100675,0.030368269655743924,2.609859612397839,-6.968512487545914,-30.602998855101735,0.0
10.29057788848877,0.09544575,0.10428104,-2.3248453,0.004122314638902457,nan,nan,nan,nan,nan,0.2897930145263672,1.4897930145263671,0.0002574920654296875,1.0,1.0,0.0,-4.0,0.7971119004289995,0.1777429124806826,-0.23793130263284998,0.04178693428123636,0.8747229387776958,-4.315249476075048,-10.521652176632635,0.0
10.390584707260132,0.095659755,0.10211364,-2.383776,0.004946187041916183,nan,nan,nan,nan,nan,0.38979434967041016,1.5897943496704101,0.0002689361572265625,1.0,1.0,0.0,-4.0,0.8015074259117453,0.2372418440003445,-0.2735777221253443,0.04536839332066034,0.0,-1.692012879453714,0.0,0.0
10.490576267242432,0.09581121,0.09872625,-2.450262,0.006322263116675263,nan,nan,nan,nan,nan,0.48978281021118164,1.6897828102111816,0.00023412704467773438,1.0,1.0,0.0,-4.0,0.7910191738454595,0.26453634388316094,-0.23574524751293838,0.036028036934748014,0.0,0.0,0.0,0.0
10.590802907943726,0.09571322,0.09481315,-2.5267534,0.0077399495435598875,nan,nan,nan,nan,nan,0.5901730060577393,1.7901730060577392,0.00023293495178222656,1.0,1.0,0.0,-4.0,0.7774422754699125,0.2047519146309971,-0.17046964205102164,0.020851961529760044,0.0,0.0,0.0,0.0
10.691024780273438,0.09274841,0.09368709,-2.6348596,-0.007349143833173491,nan,nan,nan,nan,nan,0.6902449131011963,1.8902449131011962,0.0002446174621582031,1.0,1.0,0.0,-4.0,0.7657912415010955,0.13172971343402606,-0.10123371907786288,0.018359716028476167,0.0,0.0,5.584900172594125,0.0
10.790792465209961,0.10596129,0.10369166,-2.7435699,0.0034009741102960095,nan,nan,nan,nan,nan,0.790001630783081,1.990001630783081,0.00024437904357910156,1.0,1.0,0.0,-4.0,0.7556688963422064,0.05701334477811136,-0.03966288806588737,0.003439779413597717,0.0,0.0,8.754996899251031,0.0
10.891061067581177,0.13064148,0.12756942,-2.8658557,0.009146905172947827,nan,nan,nan,nan,nan,0.8902850151062012,2.0902850151062013,0.00023174285888671875,1.0,1.0,0.0,-4.0,0.7463977869233593,-0.011425208230416855,0.01584387870332957,-0.007884231390546559,0.0,0.0162233725349461,12.474019555548669,0.0
10.990875244140625,0.15997413,0.16140607,-2.9797266,0.009391927702021581,nan,nan,nan,nan,nan,0.9902172088623047,2.190217208862305,0.0004448890686035156,1.0,1.0,0.0,-4.0,0.7379142019200919,-0.06600491907056928,0.06047396364753229,-0.011480896052255342,0.0,0.0,12.442165120193,0.0
11.090723276138306,0.20115373,0.21139553,-3.1039402,0.0048577876899901645,nan,nan,nan,nan,nan,1.0899360179901123,2.2899360179901125,0.0002512931823730469,1.0,1.0,0.0,-4.0,0.7301580687987456,-0.11106390519221172,0.09953039200066537,-0.007477404016510742,0.0,0.0,13.887082611515119,0.0
11.190878629684448,0.2538587,0.2724776,-3.22475,0.0002509093337285939,nan,nan,nan,nan,nan,1.1902315616607666,2.390231561660767,0.00047135353088378906,1.0,1.0,0.0,-4.0,0.7230728969946127,-0.1463363637568763,0.13236583743514174,-0.00011274497580687308,0.0,0.0,13.885902321957008,0.0
11.290688037872314,0.3169977,0.3500864,-3.3533084,0.0012389015933549005,nan,nan,nan,nan,nan,1.28989577293396,2.48989577293396,0.00043511390686035156,1.0,1.0,0.0,-4.0,0.7166057023896758,-0.17294143033154416,0.15567692030777586,0.00630509726978035,0.0,0.0,13.578259769689158,0.0
11.390608549118042,0.38284782,0.4279332,-3.4671872,0.005719793725326831,nan,nan,nan,nan,nan,1.3898203372955322,2.5898203372955324,0.00025153160095214844,1.0,1.0,0.0,-4.0,0.7107069146598363,-0.18978860921847068,0.16740082713560428,0.00786785696987529,0.0,0.0,11.330426982302539,0.0
11.490898609161377,0.460806,0.5157353,-3.583752,0.008458074534953001,nan,nan,nan,nan,nan,1.4902513027191162,2.6902513027191164,0.00024390220642089844,1.0,1.0,0.0,-4.0,0.7053302694836322,-0.19251373230736885,0.17254612201328254,0.009364555241375113,0.0,0.0,8.293960879198153,0.0
11.590728521347046,0.53204864,0.5989556,-3.6843574,0.010029467214835691,nan,nan,nan,nan,nan,1.589940071105957,2.789940071105957,0.0002751350402832031,1.0,1.0,0.0,-4.0,0.7004326878782173,-0.183811730804443,0.16769883852345877,0.010242574035952915,0.0,0.0,3.8220140943049214,0.0
11.690826177597046,0.6121342,0.68437064,-3.7918534,0.009402188335523167,nan,nan,nan,nan,nan,1.6900606155395508,2.890060615539551,0.0003039836883544922,1.0,1.0,0.0,-4.0,0.6961528243514383,-0.16352261631695295,0.15504208091046884,0.010008136901181146,0.0,0.0,0.0,0.0
11.790627479553223,0.68352354,0.7628178,-3.8835075,0.010665337434844522,nan,nan,nan,nan,nan,1.7898380756378174,2.9898380756378176,0.00030612945556640625,1.0,1.0,0.0,-4.0,0.6950717321508951,-0.13555208291876197,0.13498164079269614,0.008265856658157072,0.0,0.0,0.0,0.0
11.890626668930054,0.75539726,0.8424853,-3.9721608,0.014548672913315207,nan,nan,nan,nan,nan,1.8898346424102783,3.0898346424102785,0.00025272369384765625,1.0,1.0,0.0,-4.0,0.6951657295268824,-0.1060580151830176,0.10999628689069657,0.002080173435054914,0.0,0.0,0.0,0.0
11.990654945373535,0.8147144,0.9079314,-4.0447893,0.01691606946311005,nan,nan,nan,nan,nan,1.9898574352264404,3.1898574352264406,0.00025773048400878906,1.0,1.0,0.0,-4.0,0.6958571944225092,-0.07273940555862367,0.08219445860934659,-0.00413837200621893,0.0,0.0,0.0,0.0
12.09058952331543,0.8670526,0.969581,-4.1181927,0.019310202549933035,nan,nan,nan,nan,nan,2.089799642562866,3.2897996425628664,0.0002455711364746094,1.0,1.0,0.0,-4.0,0.6966274275576004,-0.0390090675961718,0.05127640061602097,-0.010364555277327634,0.0,0.0,0.0,0.0
12.19060730934143,0.9120905,1.0207093,-4.1767,0.019835284374741503,nan,nan,nan,nan,nan,2.1898226737976074,3.3898226737976076,0.0002532005310058594,1.0,1.0,0.0,-4.0,0.6978238514871221,-0.008356040674464587,0.022536510491091136,-0.014631873017145792,0.0,0.0,0.0,0.0
12.290709972381592,0.94853157,1.0591966,-4.2321286,0.01817360662574387,nan,nan,nan,nan,nan,2.289928913116455,3.4899289131164553,0.0002682209014892578,1.0,1.0,0.0,-4.0,0.6992721747037558,0.020215509852119937,-0.003430285164696048,-0.01630046203856893,0.0,0.0,0.0,0.0
12.390583276748657,0.9751422,1.0848963,-4.2764306,0.014992366139343405,nan,nan,nan,nan,nan,2.389801502227783,3.5898015022277834,0.0006158351898193359,1.0,1.0,0.0,-4.0,0.7009451815159975,0.04722599404935449,-0.028253119381687036,-0.015384137928576057,0.0,0.0,0.0,0.0
12.49080514907837,0.99814594,1.1032896,-4.3189807,0.012618428587667062,nan,nan,nan,nan,nan,2.4900193214416504,3.6900193214416506,0.00025177001953125,1.0,1.0,0.0,-4.0,0.7027547900289802,0.06702017524090978,-0.047836296591744175,-0.013546327616394634,0.0,0.0,0.0,0.0
12.590557336807251,1.0136199,1.1077148,-4.354933,0.011425685152821642,nan,nan,nan,nan,nan,2.589768648147583,3.789768648147583,0.0002598762512207031,1.0,1.0,0.0,-4.0,0.7043760149022897,0.08390886034160866,-0.061868612326944655,-0.01180594069916373,0.0,0.0,0.0,0.0
12.690963983535767,1.0184411,1.1024204,-4.385907,0.011485407357361418,nan,nan,nan,nan,nan,2.690316677093506,3.890316677093506,0.00036072731018066406,1.0,1.0,0.0,-4.0,0.7062702058081544,0.09584314805794066,-0.07269824893122619,-0.010717013028035944,0.0,0.0,0.0,0.0
12.790791511535645,1.0225153,1.0976268,-4.407427,0.011440897099218826,nan,nan,nan,nan,nan,2.790034294128418,3.990034294128418,0.00033664703369140625,1.0,1.0,0.0,-4.0,0.7083839346817686,0.09906564309099133,-0.07840369519015815,-0.009909999593229548,0.0,0.0,0.0,0.0
12.89052128791809,1.0235101,1.0878465,-4.425382,0.010783564536772646,nan,nan,nan,nan,nan,2.889734983444214,4.089734983444214,0.00022792816162109375,1.0,1.0,0.0,-4.0,0.7105379523237038,0.09444295338649873,-0.07797546921769791,-0.008739190460706515,0.0,0.0,0.0,0.0
12.990912437438965,1.0194329,1.0737662,-4.4372697,0.00997545083691633,nan,nan,nan,nan,nan,2.990135908126831,4.190135908126831,0.00024890899658203125,1.0,1.0,0.0,-4.0,0.7125540706266152,0.08801702971042845,-0.0751411344926253,-0.007583357714007293,0.0,0.0,0.0,0.0
13.09119462966919,1.008698,1.056011,-4.4446225,0.008407783102529754,nan,nan,nan,nan,nan,3.090423345565796,4.290423345565796,0.0003025531768798828,1.0,1.0,0.0,-4.0,0.7145205963629893,0.07945036125451999,-0.07209219964874583,-0.006136644610121883,0.0,0.0,0.0,0.0
13.190906763076782,0.99410814,1.0418969,-4.457509,0.006927489484248443,nan,nan,nan,nan,nan,3.190122127532959,4.390122127532959,0.0002486705780029297,1.0,1.0,0.0,-4.0,0.716003443712613,0.0675501758380983,-0.06826944256333545,-0.004771570098644902,0.0,0.0,0.0,0.0
13.290701389312744,0.9829639,1.0283849,-4.4669113,0.005249529368952059,nan,nan,nan,nan,nan,3.2899134159088135,4.489913415908814,0.00026917457580566406,1.0,1.0,0.0,-4.0,0.7173368790644078,0.052439432937184664,-0.06155869676655632,-0.0036083944067673225,0.0,0.0,0.0,0.0
13.390588283538818,0.9728034,1.0176768,-4.4720716,0.00256074102960524,nan,nan,nan,nan,nan,3.389800786972046,4.589800786972046,0.00023245811462402344,1.0,1.0,0.0,-4.0,0.7186597416238114,0.03614123701596429,-0.0513219467194786,-0.002131558501212184,0.0,0.0,0.0,0.0
13.490659713745117,0.9604392,1.0105131,-4.473267,-0.0029136501236877513,nan,nan,nan,nan,nan,3.4898672103881836,4.689867210388184,0.0002551078796386719,1.0,1.0,0.0,-4.0,0.7200601122628946,0.018010094846257,-0.04106642094360949,0.0015357744912720777,0.0,0.0,0.0,0.0
13.590745210647583,0.94641745,1.0041133,-4.471593,-0.007292060662391587,nan,nan,nan,nan,nan,3.589954376220703,4.789954376220703,0.0002453327178955078,1.0,1.0,0.0,-4.0,0.7214349627727775,0.0028182551199821006,-0.03214030168815189,0.005397834787727022,0.0,0.0,0.0,0.0
13.690551042556763,0.9338924,1.0012366,-4.462523,-0.011562096626799571,nan,nan,nan,nan,nan,3.689758539199829,4.889758539199829,0.00024080276489257812,1.0,1.0,0.0,-4.0,0.7229712257538402,-0.009673641329147945,-0.02362020056491137,0.008643623961106177,0.0,0.0,0.0,0.0
13.791099786758423,0.9221112,1.0008612,-4.454312,-0.01487531963295958,nan,nan,nan,nan,nan,3.790374279022217,4.990374279022217,0.0002453327178955078,1.0,1.0,0.0,-4.0,0.7245321027353944,-0.01979079200954806,-0.015188628498330569,0.011638265113896021,0.0,0.0,0.0,0.0
13.89079999923706,0.9117248,1.003022,-4.4462185,-0.01786355313167615,nan,nan,nan,nan,nan,3.89001727104187,5.09001727104187,0.0002493858337402344,1.0,1.0,0.0,-4.0,0.7257275650764132,-0.0263499357855291,-0.008270601951770932,0.014108964144153345,0.0,0.0,0.0,0.0
13.990975618362427,0.90591085,1.00694,-4.437788,-0.020093866602717614,nan,nan,nan,nan,nan,3.990333318710327,5.190333318710327,0.0004601478576660156,1.0,1.0,0.0,-4.0,0.7267466229518025,-0.031080016629953557,-0.0008217126611838701,0.016433308426465364,0.0,0.0,0.0,0.0
14.090662956237793,0.9008327,1.0085367,-4.427301,-0.02025511566751562,nan,nan,nan,nan,nan,4.089876413345337,5.289876413345337,0.0002727508544921875,1.0,1.0,0.0,-4.0,0.7276583422716545,-0.030422216548171222,0.005994080989503057,0.01726681042638674,0.0,0.0,0.0,0.0
14.190763711929321,0.89466953,1.0101559,-4.425057,-0.018926494906065055,nan,nan,nan,nan,nan,4.1899755001068115,5.389975500106812,0.0002522468566894531,1.0,1.0,0.0,-4.0,0.7281469998730232,-0.026776540824831642,0.010952190111484144,0.016582569767316677,0.0,0.0,0.0,0.0
14.290963411331177,0.8939727,1.0140283,-4.4254227,-0.016574293173490438,nan,nan,nan,nan,nan,4.2903032302856445,5.490303230285645,0.00047469139099121094,1.0,1.0,0.0,-4.0,0.7283016410870062,-0.022954313945324354,0.01513317802721301,0.015008800328833026,0.0,0.0,0.0,0.0
14.39060640335083,0.898275,1.0185463,-4.4274106,-0.014141075947492043,nan,nan,nan,nan,nan,4.389819622039795,5.589819622039795,0.00026345252990722656,1.0,1.0,0.0,-4.0,0.7282517771062649,-0.019713902542442405,0.020235099953181068,0.012957454162432158,0.0,0.0,0.0,0.0
14.490572452545166,0.90535563,1.0240767,-4.431453,-0.011761992457897271,nan,nan,nan,nan,nan,4.4897849559783936,5.689784955978394,0.0002593994140625,1.0,1.0,0.0,-4.0,0.728058349329903,-0.016479856524487784,0.025295001626614886,0.011042226908133949,0.0,0.0,0.0,0.0
14.590715646743774,0.9069624,1.031977,-4.435403,-0.010381672348638422,nan,nan,nan,nan,nan,4.58992600440979,5.78992600440979,0.0002663135528564453,1.0,1.0,0.0,-4.0,0.7277939499307229,-0.013905812739544509,0.02559610285662354,0.00960652551563229,0.0,0.0,0.0,0.0
14.690537452697754,0.91064984,1.0377084,-4.4398966,-0.009200053738222897,nan,nan,nan,nan,nan,4.689750671386719,5.889750671386719,0.0002231597900390625,1.0,1.0,0.0,-4.0,0.7276201056832338,-0.010782868347119915,0.024048376875425517,0.008512662092919423,0.0,0.0,0.0,0.0
14.790848731994629,0.9204154,1.0433527,-4.4446387,-0.007732239291006953,nan,nan,nan,nan,nan,4.790069103240967,5.990069103240967,0.00023865699768066406,1.0,1.0,0.0,-4.0,0.7274924272669226,-0.006827250102337183,0.023127176218840903,0.007379941125145427,0.0,0.0,0.0,0.0
14.890554666519165,0.93603235,1.048245,-4.447641,-0.00581463876928496,nan,nan,nan,nan,nan,4.8897716999053955,6.089771699905396,0.0002465248107910156,1.0,1.0,0.0,-4.0,0.7273981897223711,-0.0030861154577912836,0.02448366630641777,0.005971945271843831,0.0,0.0,0.0,0.0
14.99054217338562,0.95329154,1.0524144,-4.4458404,-0.003961431277642225,nan,nan,nan,nan,nan,4.98976993560791,6.18976993560791,0.0002460479736328125,1.0,1.0,0.0,-4.0,0.7276138359363927,0.0004314808299580985,0.027096321722435264,0.004256408563224553,0.0,0.0,0.0,0.0
15.090591430664062,0.97619766,1.0609984,-4.4398036,-0.002227850077505586,nan,nan,nan,nan,nan,5.089804649353027,6.2898046493530275,0.0002574920654296875,1.0,1.0,0.0,-4.0,0.7280798253635541,0.00041601367759774215,0.029989464500998736,0.0028722473478817474,0.0,0.0,0.0,0.0
15.190559387207031,0.9961078,1.0637736,-4.435277,-0.0008803105891966928,nan,nan,nan,nan,nan,5.189777374267578,6.389777374267578,0.0002562999725341797,1.0,1.0,0.0,-4.0,0.7285420364272115,0.0006597423794956676,0.031071985857815263,0.0015827741787391297,0.0,0.0,0.0,0.0
15.290544033050537,1.0117406,1.0648732,-4.428859,-2.0684236680465137e-05,nan,nan,nan,nan,nan,5.2897560596466064,6.489756059646607,0.0002913475036621094,1.0,1.0,0.0,-4.0,0.7289645798448193,0.00207440977431989,0.029270324184916895,0.0006281076136224769,0.0,0.0,0.0,0.0
15.390573740005493,1.0248924,1.0647559,-4.4216986,0.0004909684423924556,nan,nan,nan,nan,nan,5.38978385925293,6.58978385925293,0.0002269744873046875,1.0,1.0,0.0,-4.0,0.7294476220906516,0.004405619809796398,0.024030219147393152,-8.95953253131579e-06,0.0,0.0,0.0,0.0
15.490874290466309,1.0288739,1.0634229,-4.4200892,0.000421763745807718,nan,nan,nan,nan,nan,5.490224599838257,6.690224599838257,0.00023698806762695312,1.0,1.0,0.0,-4.0,0.7294203854437755,0.0063097608879111,0.013948722812888633,-0.00021256238433562936,0.0,0.0,0.0,0.0
15.590525150299072,1.0302998,1.0604422,-4.4253893,-3.938170205346897e-05,nan,nan,nan,nan,nan,5.589739084243774,6.789739084243775,0.00024318695068359375,1.0,1.0,0.0,-4.0,0.729039796795676,0.008044924495938124,0.0029055226704421703,-4.59571522456228e-05,0.0,0.0,0.0,0.0
15.690503358840942,1.0317504,1.0545698,-4.4297953,-0.0004996145605755224,nan,nan,nan,nan,nan,5.689712285995483,6.889712285995484,0.00023484230041503906,1.0,1.0,0.0,-4.0,0.7286938886308153,0.010342097739271462,-0.006603890731899496,0.00027262564144597227,0.0,0.0,0.0,0.0
15.790594339370728,1.0304562,1.0496778,-4.432376,-0.0009042671331341576,nan,nan,nan,nan,nan,5.789804697036743,6.989804697036743,0.0002276897430419922,1.0,1.0,0.0,-4.0,0.7285109386840861,0.011935393725870753,-0.013432136482384893,0.0005817072348661875,0.0,0.0,0.0,0.0
15.890736818313599,1.0252954,1.0472347,-4.4335093,-0.0012903669652222088,nan,nan,nan,nan,nan,5.889951944351196,7.0899519443511965,0.00024628639221191406,1.0,1.0,0.0,-4.0,0.7284346933438041,0.011906638969472442,-0.019912179651316766,0.0009056083540774743,0.0,0.0,0.0,0.0
15.991096019744873,1.0185969,1.0475129,-4.431773,-0.0015845704691441259,nan,nan,nan,nan,nan,5.990428447723389,7.190428447723389,0.0004584789276123047,1.0,1.0,0.0,-4.0,0.7285040880604483,0.009414023051349111,-0.024840552501080106,0.001157151516219256,0.0,0.0,0.0,0.0
16.090628147125244,1.0119503,1.0527393,-4.426768,-0.0022424684577543774,nan,nan,nan,nan,nan,6.089834690093994,7.289834690093994,0.00025177001953125,1.0,1.0,0.0,-4.0,0.7288490685695144,0.0038674097596447118,-0.02726164959068574,0.0015450830899044136,0.0,0.0,0.0,0.0
16.19051957130432,1.0064149,1.0545228,-4.4239893,-0.002516130405320459,nan,nan,nan,nan,nan,6.189727306365967,7.389727306365967,0.0002777576446533203,1.0,1.0,0.0,-4.0,0.7291247070222318,-0.000618655773621337,-0.02645079896530124,0.001865489828327733,0.0,0.0,0.0,0.0
16.290665864944458,1.0007906,1.0560275,-4.421394,-0.0025517926064939863,nan,nan,nan,nan,nan,6.2898783683776855,7.489878368377686,0.00024890899658203125,1.0,1.0,0.0,-4.0,0.7292728051309127,-0.0035325353849846785,-0.02292916524777643,0.0019145732286040284,0.0,0.0,0.0,0.0
16.39056420326233,0.99401784,1.0586414,-4.418414,-0.002589937628467823,nan,nan,nan,nan,nan,6.389781951904297,7.589781951904297,0.00023221969604492188,1.0,1.0,0.0,-4.0,0.7294015850123996,-0.005647652471033438,-0.019020248035774723,0.001975700868353372,0.0,0.0,0.0,0.0
16.490537405014038,0.9876593,1.061956,-4.4166794,-0.002553359613443162,nan,nan,nan,nan,nan,6.489741802215576,7.689741802215576,0.00022864341735839844,1.0,1.0,0.0,-4.0,0.729372395441159,-0.00669630053861176,-0.015254470284192894,0.0019864257454381626,0.0,0.0,0.0,0.0
16.590548038482666,0.97293866,1.0648193,-4.4135485,-0.00259035605449466,nan,nan,nan,nan,nan,6.58976149559021,7.78976149559021,0.00022530555725097656,1.0,1.0,0.0,-4.0,0.7294445139374827,-0.006384781482194118,-0.014105790340922332,0.002005677230977336,0.0,0.0,0.0,0.0
16.690528392791748,0.9596641,1.0654713,-4.41446,-0.0029095581348127625,nan,nan,nan,nan,nan,6.689736604690552,7.889736604690552,0.0002925395965576172,1.0,1.0,0.0,-4.0,0.7294250412373962,-0.005290398520396651,-0.014224635052458127,0.0021774028318301505,0.0,0.0,0.0,0.0
16.79053831100464,0.945821,1.0653328,-4.416788,-0.003380861530027414,nan,nan,nan,nan,nan,6.78974723815918,7.98974723815918,0.0002460479736328125,1.0,1.0,0.0,-4.0,0.7292729540804723,-0.003728855383979706,-0.014269775729878796,0.0025426225933392024,0.0,0.0,0.0,0.0
16.890533447265625,0.9348468,1.0665749,-4.4181347,-0.003805962521224831,nan,nan,nan,nan,nan,6.889745473861694,8.089745473861694,0.00023627281188964844,1.0,1.0,0.0,-4.0,0.7290238778274662,-0.00249181901162712,-0.01362253186990413,0.0029252917566885343,0.0,0.0,0.0,0.0
16.99056124687195,0.92760235,1.0721564,-4.4148335,-0.004333898843958065,nan,nan,nan,nan,nan,6.989777088165283,8.189777088165282,0.0002605915069580078,1.0,1.0,0.0,-4.0,0.7290609658449673,-0.004970483960984015,-0.010327476532115937,0.0033941267687771265,0.0,0.0,0.0,0.0
17.09062385559082,0.92125887,1.0748832,-4.4123464,-0.004638208789578529,nan,nan,nan,nan,nan,7.089847564697266,8.289847564697265,0.0002582073211669922,1.0,1.0,0.0,-4.0,0.7292236594508947,-0.006246725458543452,-0.006638603082200918,0.003758232157536131,0.0,0.0,0.0,0.0
17.19078803062439,0.925316,1.0791858,-4.4144325,-0.004502095160414416,nan,nan,nan,nan,nan,7.189997434616089,8.389997434616088,0.00024366378784179688,1.0,1.0,0.0,-4.0,0.7291434884555216,-0.007019969272661028,-0.0002999062633500419,0.0038699324812708972,0.0,0.0,0.0,0.0
17.29051947593689,0.93266296,1.0836896,-4.418587,-0.004097208332547354,nan,nan,nan,nan,nan,7.289727210998535,8.489727210998534,0.00022459030151367188,1.0,1.0,0.0,-4.0,0.7288635995742033,-0.007856620999069867,0.008621000439999813,0.00371234703505109,0.0,0.0,0.0,0.0
17.390531539916992,0.9409228,1.0881284,-4.4210677,-0.003571274355254051,nan,nan,nan,nan,nan,7.389739990234375,8.589739990234374,0.0002498626708984375,1.0,1.0,0.0,-4.0,0.72855000559661,-0.008486860342376489,0.016040482266865937,0.0034257321009469864,0.0,0.0,0.0,0.0
17.490548610687256,0.9468105,1.0905488,-4.416787,-0.003161855874096969,nan,nan,nan,nan,nan,7.489760637283325,8.689760637283324,0.00025010108947753906,1.0,1.0,0.0,-4.0,0.7287326154039392,-0.006707920005331458,0.0194062178128844,0.0031047760664583784,0.0,0.0,0.0,0.0
17.590484857559204,0.9505478,1.0940577,-4.415146,-0.0028490731812487796,nan,nan,nan,nan,nan,7.5896995067596436,8.789699506759643,0.00023412704467773438,1.0,1.0,0.0,-4.0,0.7288636692463554,-0.004953299607392477,0.019267176924892125,0.0028188096724012283,0.0,0.0,0.0,0.0
17.690938711166382,0.9588348,1.0945628,-4.406989,-0.002441532244698335,nan,nan,nan,nan,nan,7.6902782917022705,8.89027829170227,0.0004391670227050781,1.0,1.0,0.0,-4.0,0.7292381312011218,-0.0025239592323578015,0.01885336291019602,0.002496098959133182,0.0,0.0,0.0,0.0
17.790936708450317,0.9719885,1.0957047,-4.3987985,-0.0018560969899642345,nan,nan,nan,nan,nan,7.790279388427734,8.990279388427734,0.0004849433898925781,1.0,1.0,0.0,-4.0,0.7297750752732659,0.0005251606022380415,0.01993193081159176,0.002076920743196278,0.0,0.0,0.0,0.0
17.890575408935547,0.98600054,1.0971627,-4.392549,-0.0012887524109828153,nan,nan,nan,nan,nan,7.889786958694458,9.089786958694457,0.0004742145538330078,1.0,1.0,0.0,-4.0,0.7300043562119088,0.0023344110324034738,0.02218593826654224,0.001569219563084284,0.0,0.0,0.0,0.0
17.990538835525513,0.9991994,1.096659,-4.382711,-0.0008376971221175358,nan,nan,nan,nan,nan,7.989744186401367,9.189744186401366,0.0002231597900390625,1.0,1.0,0.0,-4.0,0.7303495514065605,0.004240991378410644,0.022366460074674053,0.0011307915458724804,0.0,0.0,0.0,0.0
18.090935230255127,1.0099183,1.0958499,-4.3824944,-0.0006430560338236248,nan,nan,nan,nan,nan,8.090269804000854,9.290269804000854,0.00025343894958496094,1.0,1.0,0.0,-4.0,0.7303358987528155,0.006128637033059692,0.020671084305682524,0.0008336489298412927,0.0,0.0,0.0,0.0
18.190534114837646,1.0215051,1.0951532,-4.3789754,-0.0003839901651417404,nan,nan,nan,nan,nan,8.18974256515503,9.389742565155029,0.0005266666412353516,1.0,1.0,0.0,-4.0,0.7302440186109604,0.007374715934903515,0.018026274528286843,0.0005991459292394141,0.0,0.0,0.0,0.0
18.290802001953125,1.029268,1.0919439,-4.3789883,-0.00014197168634945672,nan,nan,nan,nan,nan,8.290016889572144,9.490016889572143,0.00044083595275878906,1.0,1.0,0.0,-4.0,0.730207716016437,0.007741818747048264,0.014802391645451574,0.0003402507468955634,0.0,0.0,0.0,0.0
18.39052963256836,1.0349141,1.0862697,-4.38124,7.834188606507808e-05,nan,nan,nan,nan,nan,8.389738082885742,9.589738082885741,0.00022649765014648438,1.0,1.0,0.0,-4.0,0.7297806743611418,0.008823338651755785,0.009417569197479237,8.009660538198555e-05,0.0,0.0,0.0,0.0
18.4906005859375,1.0422659,1.0781066,-4.383496,0.0002973814764414785,nan,nan,nan,nan,nan,8.489817142486572,9.689817142486572,0.00025153160095214844,1.0,1.0,0.0,-4.0,0.7293309287479136,0.011433051698324342,0.0050679208030286645,-0.00017048983555458037,0.0,0.0,0.0,0.0
18.590721607208252,1.0476372,1.0674349,-4.3786335,0.000501061678160184,nan,nan,nan,nan,nan,8.589930534362793,9.789930534362792,0.00025177001953125,1.0,1.0,0.0,-4.0,0.7293343770893604,0.014230222465722255,0.0009007655630792515,-0.0003617947673554513,0.0,0.0,0.0,0.0
18.690786361694336,1.0544484,1.0618958,-4.376467,0.000718891242437467,nan,nan,nan,nan,nan,8.690197706222534,9.890197706222533,0.0002453327178955078,1.0,1.0,0.0,-4.0,0.7294660381815332,0.014339378294387388,-0.0025012392873473206,-0.0005365385221217537,0.0,0.0,0.0,0.0
18.790554761886597,1.0576838,1.0584942,-4.3763733,0.000907108539656293,nan,nan,nan,nan,nan,8.789767026901245,9.989767026901244,0.00022459030151367188,1.0,1.0,0.0,-4.0,0.7294146862682261,0.010921598801458926,-0.0046229511403857925,-0.0007364831761848119,0.0,0.0,0.0,0.0
18.890748500823975,1.0540805,1.056344,-4.378629,0.0009378891719604827,nan,nan,nan,nan,nan,8.889964580535889,10.089964580535888,0.000255584716796875,1.0,1.0,0.0,-4.0,0.7291362650097851,0.005996707569422497,-0.00963005644260656,-0.0008182357974662738,0.0,0.0,0.0,0.0
18.99086880683899,1.0471197,1.0543128,-4.383703,0.000790885110668793,nan,nan,nan,nan,nan,8.990206718444824,10.190206718444824,0.00044155120849609375,1.0,1.0,0.0,-4.0,0.7286300261979263,0.001386418128473704,-0.015608255065736355,-0.0007768577285588025,0.0,0.0,0.0,0.0
19.090539932250977,1.0360597,1.0509902,-4.383656,0.0006934656830542675,nan,nan,nan,nan,nan,9.08974814414978,10.28974814414978,0.00022721290588378906,1.0,1.0,0.0,-4.0,0.7284855666846295,-0.0008880035036569696,-0.02090365504888308,-0.0007251534752404347,0.0,0.0,0.0,0.0
19.190976858139038,1.0156778,1.0519781,-4.386771,0.0004668790198556474,nan,nan,nan,nan,nan,9.190211772918701,10.3902117729187,0.0002493858337402344,1.0,1.0,0.0,-4.0,0.7284282681538325,-0.0032349844084103648,-0.026131710858107688,-0.0006470594234633336,0.0,0.0,0.0,0.0
19.29101061820984,0.9974978,1.0544007,-4.386509,0.00019383848224618526,nan,nan,nan,nan,nan,9.290321350097656,10.490321350097656,0.00025010108947753906,1.0,1.0,0.0,-4.0,0.7283808962398954,-0.006672876035950445,-0.031587488374368866,-0.0005028206299547758,0.0,0.0,0.0,0.0
19.390563249588013,0.9818588,1.0576885,-4.383392,1.6535502344404603e-05,nan,nan,nan,nan,nan,9.389774560928345,10.589774560928344,0.00022840499877929688,1.0,1.0,0.0,-4.0,0.728747428511708,-0.009253226574475259,-0.032043933676568714,-0.00040359324789313175,0.0,0.0,0.0,0.0
19.490723133087158,0.96776015,1.0638471,-4.388955,-0.00027793231065186604,nan,nan,nan,nan,nan,9.4899320602417,10.689932060241699,0.0002624988555908203,1.0,1.0,0.0,-4.0,0.7284226966668721,-0.012633646409414511,-0.0298918187419847,-0.0002356585432184179,0.0,0.0,0.0,0.0
19.5905442237854,0.949696,1.0667161,-4.3857007,-0.00045170962984968956,nan,nan,nan,nan,nan,9.589757442474365,10.789757442474365,0.000255584716796875,1.0,1.0,0.0,-4.0,0.7284831548982197,-0.013128656636527458,-0.027289156492099034,-6.084315775344279e-05,0.0,0.0,0.0,0.0
19.690527200698853,0.9368847,1.0706396,-4.377442,-0.0005025541879183186,nan,nan,nan,nan,nan,9.68973708152771,10.88973708152771,0.00022459030151367188,1.0,1.0,0.0,-4.0,0.7289708078534323,-0.012104683439334489,-0.02333600084838142,5.42928768016093e-05,0.0,0.0,0.0,0.0
19.79104447364807,0.9246188,1.074902,-4.368728,-0.000592531898817892,nan,nan,nan,nan,nan,9.790414094924927,10.990414094924926,0.00044155120849609375,1.0,1.0,0.0,-4.0,0.7295693371562607,-0.011148937046867171,-0.017852056309032294,0.0001787530055316923,0.0,0.0,0.0,0.0
19.89051866531372,0.91226065,1.0778466,-4.3632307,-0.0007168127941512966,nan,nan,nan,nan,nan,9.88972806930542,11.08972806930542,0.0002262592315673828,1.0,1.0,0.0,-4.0,0.7298388526968259,-0.009168060924819529,-0.012490376653874603,0.0003615694214322098,0.0,0.0,0.0,0.0
19.990530014038086,0.8958172,1.0799624,-4.357032,-0.0008962233538987634,nan,nan,nan,nan,nan,9.989747285842896,11.189747285842895,0.0002624988555908203,1.0,1.0,0.0,-4.0,0.7300620417795409,-0.006279050854383986,-0.009896999725473931,0.0005442639754951868,0.0,0.0,0.0,0.0
20.0905339717865,0.88522065,1.0816932,-4.3575387,-0.0009109718285803233,nan,nan,nan,nan,nan,10.089746952056885,11.289746952056884,0.00022673606872558594,1.0,1.0,0.0,-4.0,0.7300262198855997,-0.003571302829736002,-0.007106422934961811,0.0006684367823475369,0.0,0.0,0.0,0.0
20.190529108047485,0.87907445,1.0875242,-4.3595433,-0.0008095997518009776,nan,nan,nan,nan,nan,10.189741611480713,11.389741611480712,0.00025844573974609375,1.0,1.0,0.0,-4.0,0.729766480385231,-0.0027162306606549227,-0.003018722364347111,0.0006708512835115498,0.0,0.0,0.0,0.0
20.290515899658203,0.87403107,1.0960833,-4.362407,-0.000573053061709356,nan,nan,nan,nan,nan,10.289730787277222,11.489730787277221,0.0006759166717529297,1.0,1.0,0.0,-4.0,0.7294858653731737,-0.0044548263733030875,0.0019298112638766569,0.0005758706482125265,0.0,0.0,0.0,0.0
20.39083981513977,0.870326,1.1031214,-4.3651876,-0.0002996027568540286,nan,nan,nan,nan,nan,10.39018988609314,11.590189886093139,0.0004830360412597656,1.0,1.0,0.0,-4.0,0.7291659688605261,-0.00570066053679758,0.006389266559914706,0.00042444432659942644,0.0,0.0,0.0,0.0
20.490549564361572,0.8667033,1.109107,-4.370143,8.107348037923387e-06,nan,nan,nan,nan,nan,10.489763736724854,11.689763736724853,0.00024390220642089844,1.0,1.0,0.0,-4.0,0.7288191445589811,-0.005665318312366508,0.009922035503296286,0.00024074692348343798,0.0,0.0,0.0,0.0
20.590524673461914,0.8666595,1.1133994,-4.369829,0.0002370211419418641,nan,nan,nan,nan,nan,10.5897376537323,11.789737653732299,0.00022149085998535156,1.0,1.0,0.0,-4.0,0.7287373629496356,-0.004393287184844372,0.012913097431128798,7.685113002384998e-05,0.0,0.0,0.0,0.0
20.69136071205139,0.86735934,1.118549,-4.368113,0.0006548901436138023,nan,nan,nan,nan,nan,10.690695762634277,11.890695762634277,0.00047588348388671875,1.0,1.0,0.0,-4.0,0.7288640503161601,-0.0032398326209388223,0.015141673532064623,-0.00014481142086968451,0.0,0.0,0.0,0.0
20.79065203666687,0.87015325,1.1228715,-4.36694,0.0012858336172745207,nan,nan,nan,nan,nan,10.789865970611572,11.989865970611572,0.0002536773681640625,1.0,1.0,0.0,-4.0,0.7289400992159646,-0.002837064202554478,0.015683433639452595,-0.0006598930380663063,0.0,0.0,0.0,0.0
20.890549659729004,0.87849796,1.1251031,-4.3679895,0.0017236054649048798,nan,nan,nan,nan,nan,10.889762878417969,12.089762878417968,0.00023055076599121094,1.0,1.0,0.0,-4.0,0.728823482161816,-0.0010157544014973115,0.01752772013789326,-0.0010575799547255349,0.0,0.0,0.0,0.0
20.99056649208069,0.8896622,1.1233449,-4.3697996,0.0017790332526014929,nan,nan,nan,nan,nan,10.9897780418396,12.189778041839599,0.00023055076599121094,1.0,1.0,0.0,-4.0,0.728675391755712,0.0025402363575282,0.020295206247668847,-0.0011979405807025062,0.0,0.0,0.0,0.0
21.09071660041809,0.90295464,1.1241899,-4.3756886,0.0019262074661902506,nan,nan,nan,nan,nan,11.089935541152954,12.289935541152953,0.0002529621124267578,1.0,1.0,0.0,-4.0,0.7284449827464731,0.004763071351975529,0.022780909623838094,-0.0012602416373175178,0.0,0.0,0.0,0.0
21.190525770187378,0.9129308,1.1249305,-4.3793254,0.0022678305755954023,nan,nan,nan,nan,nan,11.189736604690552,12.389736604690551,0.0002288818359375,1.0,1.0,0.0,-4.0,0.7282240812270052,0.004855674532341464,0.0233378453000815,-0.0014991846872015962,0.0,0.0,0.0,0.0
21.290760040283203,0.9203627,1.1251167,-4.381779,0.002715957095320399,nan,nan,nan,nan,nan,11.289989471435547,12.489989471435546,0.0003681182861328125,1.0,1.0,0.0,-4.0,0.7281708891991893,0.004946700265272077,0.020134110989642497,-0.0019474723345304411,0.0,0.0,0.0,0.0
21.39086413383484,0.92442155,1.1249049,-4.3843985,0.0027992991677255104,nan,nan,nan,nan,nan,11.390204429626465,12.590204429626464,0.0004668235778808594,1.0,1.0,0.0,-4.0,0.727991143909508,0.005195180352258645,0.013814864769102889,-0.0021981578416045934,0.0,0.0,0.0,0.0
21.49052381515503,0.92463225,1.125412,-4.3933406,0.0028306949335184985,nan,nan,nan,nan,nan,11.48973560333252,12.689735603332519,0.0002377033233642578,1.0,1.0,0.0,-4.0,0.7275561057258638,0.004534806890553793,0.0064177469558335115,-0.0023179377350975865,0.0,0.0,0.0,0.0
21.590619325637817,0.9254443,1.1234832,-4.403358,0.0026109403639685913,nan,nan,nan,nan,nan,11.589827537536621,12.78982753753662,0.0002503395080566406,1.0,1.0,0.0,-4.0,0.7270392884221878,0.004434567933023585,0.000382525000158208,-0.0022740337543136814,0.0,0.0,0.0,0.0
21.691015005111694,0.92639595,1.1191905,-4.4109426,0.0020863485039885263,nan,nan,nan,nan,nan,11.690359830856323,12.890359830856323,0.00046515464782714844,1.0,1.0,0.0,-4.0,0.7267065010606408,0.006211343477220198,-0.004006915880336813,-0.001968550623897166,0.0,0.0,0.0,0.0
21.790557861328125,0.92780864,1.11483,-4.415826,0.0014897923276736297,nan,nan,nan,nan,nan,11.78977084159851,12.98977084159851,0.0002238750457763672,1.0,1.0,0.0,-4.0,0.7266281717720565,0.00830705346418305,-0.007328978523021353,-0.0014649521787050259,0.0,0.0,0.0,0.0
21.890554428100586,0.9312019,1.111954,-4.422365,0.0009307360578092901,nan,nan,nan,nan,nan,11.889765739440918,13.089765739440917,0.00023174285888671875,1.0,1.0,0.0,-4.0,0.7264474267285933,0.008495688006302345,-0.008130704144936413,-0.0009882509066524029,0.0,0.0,0.0,0.0
21.9905686378479,0.934026,1.1085712,-4.432399,0.0008452212098452143,nan,nan,nan,nan,nan,11.98979902267456,13.18979902267456,0.00022864341735839844,1.0,1.0,0.0,-4.0,0.7260427634911365,0.007744781711409519,-0.007335666885786842,-0.0007768701617131855,0.0,0.0,0.0,0.0
22.090534210205078,0.93316257,1.1042433,-4.4419465,0.000859771940328248,nan,nan,nan,nan,nan,12.089749336242676,13.289749336242675,0.0002739429473876953,1.0,1.0,0.0,-4.0,0.7257680776289253,0.006662227511301215,-0.007085598006060031,-0.0007613832830693283,0.0,0.0,0.0,0.0
22.190548181533813,0.9270238,1.1021516,-4.4464426,0.0008457682326038136,nan,nan,nan,nan,nan,12.189759492874146,13.389759492874145,0.0002727508544921875,1.0,1.0,0.0,-4.0,0.725724119176848,0.004402070500916068,-0.008851060130340456,-0.000771185315526216,0.0,0.0,0.0,0.0
22.290583848953247,0.9197373,1.1001049,-4.449226,0.0007953628016630437,nan,nan,nan,nan,nan,12.289791107177734,13.489791107177734,0.00025725364685058594,1.0,1.0,0.0,-4.0,0.72598743626592,0.001437790202140587,-0.012430425593652589,-0.0007802039703749165,0.0,0.0,0.0,0.0
22.390535354614258,0.9147599,1.0953195,-4.4556036,0.00062900118232374,nan,nan,nan,nan,nan,12.389747142791748,13.589747142791747,0.0002372264862060547,1.0,1.0,0.0,-4.0,0.7258374980673451,0.000735469008778868,-0.01342841648785918,-0.000660841955788353,0.0,0.0,0.0,0.0
22.490678787231445,0.9063311,1.0919951,-4.4659796,0.0005959323725069645,nan,nan,nan,nan,nan,12.489967107772827,13.689967107772826,0.0002772808074951172,1.0,1.0,0.0,-4.0,0.7255804583730657,-0.0003744500031343518,-0.01407266655151732,-0.0006031616070670561,0.0,0.0,0.0,0.0
22.59060025215149,0.8992235,1.0855445,-4.4770513,0.0004895349202237824,nan,nan,nan,nan,nan,12.589807748794556,13.789807748794555,0.0002281665802001953,1.0,1.0,0.0,-4.0,0.7252655478209826,0.00048019600973462566,-0.014097978735659671,-0.0005333506224164053,0.0,0.0,0.0,0.0
22.691095113754272,0.89195263,1.0810754,-4.4816008,0.0004643264156256482,nan,nan,nan,nan,nan,12.69030475616455,13.89030475616455,0.0002455711364746094,1.0,1.0,0.0,-4.0,0.7252128744383902,0.0021970793115254333,-0.012781053992546802,-0.00044047855702201077,0.0,0.0,0.0,0.0
22.790805101394653,0.8861852,1.0788816,-4.480506,0.0006176969013155218,nan,nan,nan,nan,nan,12.790017366409302,13.990017366409301,0.00024509429931640625,1.0,1.0,0.0,-4.0,0.7256655474672784,0.0012589009556379835,-0.01062446275060803,-0.0005390457564771019,0.0,0.0,0.0,0.0
22.891119718551636,0.8822536,1.0757006,-4.4781723,0.0008582419887488667,nan,nan,nan,nan,nan,12.890453815460205,14.090453815460204,0.000446319580078125,1.0,1.0,0.0,-4.0,0.7260880872453346,0.0005910207030211615,-0.007955509377429363,-0.0006967106012397922,0.0,0.0,0.0,0.0
22.991217613220215,0.88323015,1.0695723,-4.4763875,0.0008832066687800367,nan,nan,nan,nan,nan,12.990768909454346,14.190768909454345,0.0002593994140625,1.0,1.0,0.0,-4.0,0.7264950942500928,0.0016410120609265549,-0.003058313327114258,-0.0007592228181402763,0.0,0.0,0.0,0.0
23.09053635597229,0.8883668,1.0681118,-4.4795527,0.000858732549093702,nan,nan,nan,nan,nan,13.089743375778198,14.289743375778198,0.00022530555725097656,1.0,1.0,0.0,-4.0,0.7267183915612331,0.002246458588974123,0.003344823193837112,-0.0007176379861940313,0.0,0.0,0.0,0.0
23.19052791595459,0.89463973,1.0693088,-4.47862,0.0007988232159408691,nan,nan,nan,nan,nan,13.189736127853394,14.389736127853393,0.0002522468566894531,1.0,1.0,0.0,-4.0,0.7268010237857464,0.0005831570815042986,0.010070734960134012,-0.0006327096613182154,0.0,0.0,0.0,0.0
23.290911197662354,0.90337723,1.0717908,-4.4743633,0.0007059496613261869,nan,nan,nan,nan,nan,13.290334224700928,14.490334224700927,0.00045609474182128906,1.0,1.0,0.0,-4.0,0.7272766091795339,-0.0016902950063933753,0.01580006681813322,-0.0004897816667769773,0.0,0.0,0.0,0.0
23.390544652938843,0.9115498,1.0746173,-4.4731154,0.0007571515067235145,nan,nan,nan,nan,nan,13.38975715637207,14.58975715637207,0.0002262592315673828,1.0,1.0,0.0,-4.0,0.727439118755143,-0.004071258742329373,0.019695013929569603,-0.00044478018533307835,0.0,0.0,0.0,0.0
23.49078369140625,0.9204857,1.0733962,-4.47608,0.0006988813582662909,nan,nan,nan,nan,nan,13.490041732788086,14.690041732788085,0.0002472400665283203,1.0,1.0,0.0,-4.0,0.7274497040653541,-0.0038931764803875227,0.020836476632987894,-0.00041526402344397933,0.0,0.0,0.0,0.0
23.5908784866333,0.9278675,1.0681007,-4.4794793,0.0004196175439473023,nan,nan,nan,nan,nan,13.590097188949585,14.790097188949584,0.0002510547637939453,1.0,1.0,0.0,-4.0,0.7273534657352503,-0.000732384926791574,0.019673311366757953,-0.00028250932809511305,0.0,0.0,0.0,0.0
23.6905677318573,0.9334829,1.0622565,-4.4805245,0.0001673057533133895,nan,nan,nan,nan,nan,13.689774513244629,14.889774513244628,0.00022482872009277344,1.0,1.0,0.0,-4.0,0.7273503868332463,0.003539322748189502,0.01659412436421505,-8.33809198340669e-05,0.0,0.0,0.0,0.0
23.791064262390137,0.938265,1.0578269,-4.4789586,0.00017789011303473174,nan,nan,nan,nan,nan,13.7904052734375,14.9904052734375,0.00044655799865722656,1.0,1.0,0.0,-4.0,0.7274767426154425,0.005723296885065516,0.011273918107307013,-7.709583136993315e-05,0.0,0.0,0.0,0.0
23.890702962875366,0.9489993,1.0529822,-4.476813,0.00045626480296655616,nan,nan,nan,nan,nan,13.88991665840149,15.089916658401489,0.00024390220642089844,1.0,1.0,0.0,-4.0,0.7275665808650776,0.006368462713216396,0.008709168204576678,-0.0002612736450732309,0.0,0.0,0.0,0.0
23.991072177886963,0.9608937,1.0506169,-4.483926,0.0006856771663961737,nan,nan,nan,nan,nan,13.990463733673096,15.190463733673095,0.0005271434783935547,1.0,1.0,0.0,-4.0,0.7272621141820251,0.005693115902964115,0.00824493168013664,-0.0004890563529005194,0.0,0.0,0.0,0.0
24.090655088424683,0.9698675,1.0496061,-4.483748,0.000857154001580884,nan,nan,nan,nan,nan,14.089900732040405,15.289900732040405,0.00025391578674316406,1.0,1.0,0.0,-4.0,0.7271328673954927,0.003923447016835726,0.007476440252703288,-0.0006368028154260409,0.0,0.0,0.0,0.0
24.190664052963257,0.9751276,1.0496831,-4.480272,0.0010267458754267618,nan,nan,nan,nan,nan,14.189876794815063,15.389876794815063,0.0002608299255371094,1.0,1.0,0.0,-4.0,0.7273580128746702,0.0017519463400918365,0.004149735828037528,-0.0007936338726092197,0.0,0.0,0.0,0.0
24.290568113327026,0.97880894,1.0517266,-4.4758596,0.0011991581404549546,nan,nan,nan,nan,nan,14.289782285690308,15.489782285690307,0.00022721290588378906,1.0,1.0,0.0,-4.0,0.727721788253801,2.806497763028457e-05,0.00015754263614851612,-0.0009538760967734071,0.0,0.0,0.0,0.0
24.390716314315796,0.98105097,1.0573612,-4.4742804,0.0013791137841731673,nan,nan,nan,nan,nan,14.38992691040039,15.58992691040039,0.0002722740173339844,1.0,1.0,0.0,-4.0,0.7277524611718375,-0.004516382707529584,-0.0033470629287467224,-0.001155868363967806,0.0,0.0,0.0,0.0
24.490696668624878,0.98478806,1.062103,-4.4735165,0.0015725176901971506,nan,nan,nan,nan,nan,14.489908695220947,15.689908695220947,0.0002872943878173828,1.0,1.0,0.0,-4.0,0.7277465064122267,-0.008031518229172958,-0.00550322339710288,-0.0013317548894844066,0.0,0.0,0.0,0.0
24.5908522605896,0.98534614,1.0680447,-4.475563,0.0016694913889569252,nan,nan,nan,nan,nan,14.590195417404175,15.790195417404174,0.0002512931823730469,1.0,1.0,0.0,-4.0,0.7276266287682934,-0.0109322725991597,-0.007041149916052428,-0.001482264394291406,0.0,0.0,0.0,0.0
24.690542936325073,0.98821676,1.0740107,-4.477059,0.0016883219355446587,nan,nan,nan,nan,nan,14.689753532409668,15.889753532409667,0.00022530555725097656,1.0,1.0,0.0,-4.0,0.7274906563021747,-0.012819212180934696,-0.007918284441953966,-0.0015479489880779256,0.0,0.0,0.0,0.0
24.790666103363037,0.9923409,1.0780612,-4.477027,0.001633701148319287,nan,nan,nan,nan,nan,14.789879560470581,15.98987956047058,0.0002570152282714844,1.0,1.0,0.0,-4.0,0.727469862061244,-0.012533147953735986,-0.0061531549207460385,-0.0014952507464360614,0.0,0.0,0.0,0.0
24.890541076660156,0.9927431,1.0796579,-4.477441,0.0016343749531778301,nan,nan,nan,nan,nan,14.889757633209229,16.089757633209228,0.00022482872009277344,1.0,1.0,0.0,-4.0,0.7274243751987006,-0.00958811452321319,-0.005624490305609851,-0.0014778509286525608,0.0,0.0,0.0,0.0
24.990529537200928,0.99315673,1.079056,-4.476025,0.0015429600642848321,nan,nan,nan,nan,nan,14.989741325378418,16.189741325378417,0.00022840499877929688,1.0,1.0,0.0,-4.0,0.7275283810496808,-0.005174658551099477,-0.005639123378115758,-0.0014175326610092846,0.0,0.0,0.0,0.0
